{
"type": "FeatureCollection",
"name": "Travel",
"crs": { "type": "name", "properties": { "name": "urn:ogc:def:crs:OGC:1.3:CRS84" } },
"features": [
{ "type": "Feature", "properties": { "Name": "Khulna University", "description": null, "timestamp": null, "begin": null, "end": null, "altitudeMode": null, "tessellate": -1, "extrude": 0, "visibility": -1, "drawOrder": null, "icon": null }, "geometry": { "type": "Point", "coordinates": [ 89.53231, 22.8031, 0.0 ] } },
{ "type": "Feature", "properties": { "Name": "Zero Point Bus Stop", "description": null, "timestamp": null, "begin": null, "end": null, "altitudeMode": null, "tessellate": -1, "extrude": 0, "visibility": -1, "drawOrder": null, "icon": null }, "geometry": { "type": "Point", "coordinates": [ 89.5287, 22.79826, 0.0 ] } },
{ "type": "Feature", "properties": { "Name": "The Kabab Factory", "description": null, "timestamp": null, "begin": null, "end": null, "altitudeMode": null, "tessellate": -1, "extrude": 0, "visibility": -1, "drawOrder": null, "icon": null }, "geometry": { "type": "Point", "coordinates": [ 89.53491, 22.78694, 0.0 ] } },
{ "type": "Feature", "properties": { "Name": "Firefly Restaurant", "description": null, "timestamp": null, "begin": null, "end": null, "altitudeMode": null, "tessellate": -1, "extrude": 0, "visibility": -1, "drawOrder": null, "icon": null }, "geometry": { "type": "Point", "coordinates": [ 89.54004, 22.78466, 0.0 ] } },
{ "type": "Feature", "properties": { "Name": "Batiaghata Bridge", "description": null, "timestamp": null, "begin": null, "end": null, "altitudeMode": null, "tessellate": -1, "extrude": 0, "visibility": -1, "drawOrder": null, "icon": null }, "geometry": { "type": "Point", "coordinates": [ 89.51809, 22.74566, 0.0 ] } },
{ "type": "Feature", "properties": { "Name": "Katianangla Bazar", "description": null, "timestamp": null, "begin": null, "end": null, "altitudeMode": null, "tessellate": -1, "extrude": 0, "visibility": -1, "drawOrder": null, "icon": null }, "geometry": { "type": "Point", "coordinates": [ 89.5289, 22.67264, 0.0 ] } },
{ "type": "Feature", "properties": { "Name": "Dumuria Upazila Parishad", "description": null, "timestamp": null, "begin": null, "end": null, "altitudeMode": null, "tessellate": -1, "extrude": 0, "visibility": -1, "drawOrder": null, "icon": null }, "geometry": { "type": "Point", "coordinates": [ 89.42139, 22.8075, 0.0 ] } },
{ "type": "Feature", "properties": { "Name": "PCF Feed Industries", "description": null, "timestamp": null, "begin": null, "end": null, "altitudeMode": null, "tessellate": -1, "extrude": 0, "visibility": -1, "drawOrder": null, "icon": null }, "geometry": { "type": "Point", "coordinates": [ 89.43367, 22.80327, 0.0 ] } },
{ "type": "Feature", "properties": { "Name": "ডুমুরিয়া ঈদগাহ মাঠ", "description": null, "timestamp": null, "begin": null, "end": null, "altitudeMode": null, "tessellate": -1, "extrude": 0, "visibility": -1, "drawOrder": null, "icon": null }, "geometry": { "type": "Point", "coordinates": [ 89.41903, 22.80045, 0.0 ] } },
{ "type": "Feature", "properties": { "Name": "Linear Park", "description": null, "timestamp": null, "begin": null, "end": null, "altitudeMode": null, "tessellate": -1, "extrude": 0, "visibility": -1, "drawOrder": null, "icon": null }, "geometry": { "type": "Point", "coordinates": [ 89.53682, 22.80842, 0.0 ] } },
{ "type": "Feature", "properties": { "Name": "Sonadanga Bus Terminal", "description": null, "timestamp": null, "begin": null, "end": null, "altitudeMode": null, "tessellate": -1, "extrude": 0, "visibility": -1, "drawOrder": null, "icon": null }, "geometry": { "type": "Point", "coordinates": [ 89.5418, 22.81623, 0.0 ] } },
{ "type": "Feature", "properties": { "Name": "Shibbari Circle", "description": null, "timestamp": null, "begin": null, "end": null, "altitudeMode": null, "tessellate": -1, "extrude": 0, "visibility": -1, "drawOrder": null, "icon": null }, "geometry": { "type": "Point", "coordinates": [ 89.55293, 22.82222, 0.0 ] } },
{ "type": "Feature", "properties": { "Name": "Sangeeta Cinema Hall", "description": null, "timestamp": null, "begin": null, "end": null, "altitudeMode": null, "tessellate": -1, "extrude": 0, "visibility": -1, "drawOrder": null, "icon": null }, "geometry": { "type": "Point", "coordinates": [ 89.55575, 22.82046, 0.0 ] } },
{ "type": "Feature", "properties": { "Name": "New Azmiri Grill & B-B-Q", "description": null, "timestamp": null, "begin": null, "end": null, "altitudeMode": null, "tessellate": -1, "extrude": 0, "visibility": -1, "drawOrder": null, "icon": null }, "geometry": { "type": "Point", "coordinates": [ 89.55685, 22.81198, 0.0 ] } },
{ "type": "Feature", "properties": { "Name": "Royal Mor", "description": null, "timestamp": null, "begin": null, "end": null, "altitudeMode": null, "tessellate": -1, "extrude": 0, "visibility": -1, "drawOrder": null, "icon": null }, "geometry": { "type": "Point", "coordinates": [ 89.56235, 22.81023, 0.0 ] } },
{ "type": "Feature", "properties": { "Name": "Chinese Palace", "description": null, "timestamp": null, "begin": null, "end": null, "altitudeMode": null, "tessellate": -1, "extrude": 0, "visibility": -1, "drawOrder": null, "icon": null }, "geometry": { "type": "Point", "coordinates": [ 89.56624, 22.80844, 0.0 ] } },
{ "type": "Feature", "properties": { "Name": "Chinese Garden", "description": null, "timestamp": null, "begin": null, "end": null, "altitudeMode": null, "tessellate": -1, "extrude": 0, "visibility": -1, "drawOrder": null, "icon": null }, "geometry": { "type": "Point", "coordinates": [ 89.56645, 22.811, 0.0 ] } },
{ "type": "Feature", "properties": { "Name": "Western Inn International Ltd", "description": null, "timestamp": null, "begin": null, "end": null, "altitudeMode": null, "tessellate": -1, "extrude": 0, "visibility": -1, "drawOrder": null, "icon": null }, "geometry": { "type": "Point", "coordinates": [ 89.56676, 22.81371, 0.0 ] } },
{ "type": "Feature", "properties": { "Name": "Shahid Hadis Park", "description": null, "timestamp": null, "begin": null, "end": null, "altitudeMode": null, "tessellate": -1, "extrude": 0, "visibility": -1, "drawOrder": null, "icon": null }, "geometry": { "type": "Point", "coordinates": [ 89.5659, 22.81567, 0.0 ] } },
{ "type": "Feature", "properties": { "Name": "Khulna City Corporation", "description": null, "timestamp": null, "begin": null, "end": null, "altitudeMode": null, "tessellate": -1, "extrude": 0, "visibility": -1, "drawOrder": null, "icon": null }, "geometry": { "type": "Point", "coordinates": [ 89.56622, 22.81669, 0.0 ] } },
{ "type": "Feature", "properties": { "Name": "Kalibari Ghat", "description": null, "timestamp": null, "begin": null, "end": null, "altitudeMode": null, "tessellate": -1, "extrude": 0, "visibility": -1, "drawOrder": null, "icon": null }, "geometry": { "type": "Point", "coordinates": [ 89.56558, 22.81908, 0.0 ] } },
{ "type": "Feature", "properties": { "Name": "Jalil Tower Shopping Complex", "description": null, "timestamp": null, "begin": null, "end": null, "altitudeMode": null, "tessellate": -1, "extrude": 0, "visibility": -1, "drawOrder": null, "icon": null }, "geometry": { "type": "Point", "coordinates": [ 89.56426, 22.81576, 0.0 ] } },
{ "type": "Feature", "properties": { "Name": "Baro Bazar", "description": null, "timestamp": null, "begin": null, "end": null, "altitudeMode": null, "tessellate": -1, "extrude": 0, "visibility": -1, "drawOrder": null, "icon": null }, "geometry": { "type": "Point", "coordinates": [ 89.56349, 22.81947, 0.0 ] } },
{ "type": "Feature", "properties": { "Name": "Railway Market", "description": null, "timestamp": null, "begin": null, "end": null, "altitudeMode": null, "tessellate": -1, "extrude": 0, "visibility": -1, "drawOrder": null, "icon": null }, "geometry": { "type": "Point", "coordinates": [ 89.56233, 22.81754, 0.0 ] } },
{ "type": "Feature", "properties": { "Name": "New Kaifeng Chinese Restaurant", "description": null, "timestamp": null, "begin": null, "end": null, "altitudeMode": null, "tessellate": -1, "extrude": 0, "visibility": -1, "drawOrder": null, "icon": null }, "geometry": { "type": "Point", "coordinates": [ 89.55747, 22.81888, 0.0 ] } },
{ "type": "Feature", "properties": { "Name": "Khulna Railway Station", "description": null, "timestamp": null, "begin": null, "end": null, "altitudeMode": null, "tessellate": -1, "extrude": 0, "visibility": -1, "drawOrder": null, "icon": null }, "geometry": { "type": "Point", "coordinates": [ 89.55772, 22.82034, 0.0 ] } },
{ "type": "Feature", "properties": { "Name": "BIWTA Launch Terminal", "description": null, "timestamp": null, "begin": null, "end": null, "altitudeMode": null, "tessellate": -1, "extrude": 0, "visibility": -1, "drawOrder": null, "icon": null }, "geometry": { "type": "Point", "coordinates": [ 89.55912, 22.82289, 0.0 ] } },
{ "type": "Feature", "properties": { "Name": "Sundarban Holidays Tours & Travels", "description": null, "timestamp": null, "begin": null, "end": null, "altitudeMode": null, "tessellate": -1, "extrude": 0, "visibility": -1, "drawOrder": null, "icon": null }, "geometry": { "type": "Point", "coordinates": [ 89.5586, 22.8231, 0.0 ] } },
{ "type": "Feature", "properties": { "Name": "ShreeShree Lokonath Babar Mondir", "description": null, "timestamp": null, "begin": null, "end": null, "altitudeMode": null, "tessellate": -1, "extrude": 0, "visibility": -1, "drawOrder": null, "icon": null }, "geometry": { "type": "Point", "coordinates": [ 89.55548, 22.82636, 0.0 ] } },
{ "type": "Feature", "properties": { "Name": "Rupsha Temporary Bus Station", "description": null, "timestamp": null, "begin": null, "end": null, "altitudeMode": null, "tessellate": -1, "extrude": 0, "visibility": -1, "drawOrder": null, "icon": null }, "geometry": { "type": "Point", "coordinates": [ 89.57929, 22.80169, 0.0 ] } },
{ "type": "Feature", "properties": { "Name": "Rupsha Ferry Ghat", "description": null, "timestamp": null, "begin": null, "end": null, "altitudeMode": null, "tessellate": -1, "extrude": 0, "visibility": -1, "drawOrder": null, "icon": null }, "geometry": { "type": "Point", "coordinates": [ 89.58132, 22.80187, 0.0 ] } },
{ "type": "Feature", "properties": { "Name": "Belasheshe cafe", "description": null, "timestamp": null, "begin": null, "end": null, "altitudeMode": null, "tessellate": -1, "extrude": 0, "visibility": -1, "drawOrder": null, "icon": null }, "geometry": { "type": "Point", "coordinates": [ 89.58129, 22.77824, 0.0 ] } },
{ "type": "Feature", "properties": { "Name": "Khan Jahan Ali Bridge", "description": null, "timestamp": null, "begin": null, "end": null, "altitudeMode": null, "tessellate": -1, "extrude": 0, "visibility": -1, "drawOrder": null, "icon": null }, "geometry": { "type": "Point", "coordinates": [ 89.58423, 22.77762, 0.0 ] } },
{ "type": "Feature", "properties": { "Name": "Nirala Police Box", "description": null, "timestamp": null, "begin": null, "end": null, "altitudeMode": null, "tessellate": -1, "extrude": 0, "visibility": -1, "drawOrder": null, "icon": null }, "geometry": { "type": "Point", "coordinates": [ 89.55449, 22.80173, 0.0 ] } },
{ "type": "Feature", "properties": { "Name": "Khulna Markaz Mosque", "description": null, "timestamp": null, "begin": null, "end": null, "altitudeMode": null, "tessellate": -1, "extrude": 0, "visibility": -1, "drawOrder": null, "icon": null }, "geometry": { "type": "Point", "coordinates": [ 89.55231, 22.80209, 0.0 ] } },
{ "type": "Feature", "properties": { "Name": "Nirala Jame Mosque", "description": null, "timestamp": null, "begin": null, "end": null, "altitudeMode": null, "tessellate": -1, "extrude": 0, "visibility": -1, "drawOrder": null, "icon": null }, "geometry": { "type": "Point", "coordinates": [ 89.55451, 22.80079, 0.0 ] } },
{ "type": "Feature", "properties": { "Name": "Nirala 2nd Jame Masjid", "description": null, "timestamp": null, "begin": null, "end": null, "altitudeMode": null, "tessellate": -1, "extrude": 0, "visibility": -1, "drawOrder": null, "icon": null }, "geometry": { "type": "Point", "coordinates": [ 89.55309, 22.79742, 0.0 ] } },
{ "type": "Feature", "properties": { "Name": "Kamrul Ti Stol", "description": null, "timestamp": null, "begin": null, "end": null, "altitudeMode": null, "tessellate": -1, "extrude": 0, "visibility": -1, "drawOrder": null, "icon": null }, "geometry": { "type": "Point", "coordinates": [ 89.55535, 22.79653, 0.0 ] } },
{ "type": "Feature", "properties": { "Name": "Bashupara Koborsthan", "description": null, "timestamp": null, "begin": null, "end": null, "altitudeMode": null, "tessellate": -1, "extrude": 0, "visibility": -1, "drawOrder": null, "icon": null }, "geometry": { "type": "Point", "coordinates": [ 89.55021, 22.81085, 0.0 ] } },
{ "type": "Feature", "properties": { "Name": "Khulna Medical College Hospital", "description": null, "timestamp": null, "begin": null, "end": null, "altitudeMode": null, "tessellate": -1, "extrude": 0, "visibility": -1, "drawOrder": null, "icon": null }, "geometry": { "type": "Point", "coordinates": [ 89.53714, 22.82817, 0.0 ] } },
{ "type": "Feature", "properties": { "Name": "Boyra Bus Stand", "description": null, "timestamp": null, "begin": null, "end": null, "altitudeMode": null, "tessellate": -1, "extrude": 0, "visibility": -1, "drawOrder": null, "icon": null }, "geometry": { "type": "Point", "coordinates": [ 89.53197, 22.83559, 0.0 ] } },
{ "type": "Feature", "properties": { "Name": "Boyra College Mor Bus Stop", "description": null, "timestamp": null, "begin": null, "end": null, "altitudeMode": null, "tessellate": -1, "extrude": 0, "visibility": -1, "drawOrder": null, "icon": null }, "geometry": { "type": "Point", "coordinates": [ 89.54021, 22.83749, 0.0 ] } },
{ "type": "Feature", "properties": { "Name": "Sheikh Abu Naser Stadium", "description": null, "timestamp": null, "begin": null, "end": null, "altitudeMode": null, "tessellate": -1, "extrude": 0, "visibility": -1, "drawOrder": null, "icon": null }, "geometry": { "type": "Point", "coordinates": [ 89.53734, 22.84453, 0.0 ] } },
{ "type": "Feature", "properties": { "Name": "New Mega Biriyani", "description": null, "timestamp": null, "begin": null, "end": null, "altitudeMode": null, "tessellate": -1, "extrude": 0, "visibility": -1, "drawOrder": null, "icon": null }, "geometry": { "type": "Point", "coordinates": [ 89.54077, 22.85597, 0.0 ] } },
{ "type": "Feature", "properties": { "Name": "Khalispur New Market Jame Mosque", "description": null, "timestamp": null, "begin": null, "end": null, "altitudeMode": null, "tessellate": -1, "extrude": 0, "visibility": -1, "drawOrder": null, "icon": null }, "geometry": { "type": "Point", "coordinates": [ 89.54678, 22.85856, 0.0 ] } },
{ "type": "Feature", "properties": { "Name": "Khulna Newsprint Mill", "description": null, "timestamp": null, "begin": null, "end": null, "altitudeMode": null, "tessellate": -1, "extrude": 0, "visibility": -1, "drawOrder": null, "icon": null }, "geometry": { "type": "Point", "coordinates": [ 89.55124, 22.85423, 0.0 ] } },
{ "type": "Feature", "properties": { "Name": "Daulatpur Jute Mill", "description": null, "timestamp": null, "begin": null, "end": null, "altitudeMode": null, "tessellate": -1, "extrude": 0, "visibility": -1, "drawOrder": null, "icon": null }, "geometry": { "type": "Point", "coordinates": [ 89.54997, 22.85921, 0.0 ] } },
{ "type": "Feature", "properties": { "Name": "Platinum Jubille Jute Mills", "description": null, "timestamp": null, "begin": null, "end": null, "altitudeMode": null, "tessellate": -1, "extrude": 0, "visibility": -1, "drawOrder": null, "icon": null }, "geometry": { "type": "Point", "coordinates": [ 89.54823, 22.86161, 0.0 ] } },
{ "type": "Feature", "properties": { "Name": "The Cresent Jute Mills Company Limited", "description": null, "timestamp": null, "begin": null, "end": null, "altitudeMode": null, "tessellate": -1, "extrude": 0, "visibility": -1, "drawOrder": null, "icon": null }, "geometry": { "type": "Point", "coordinates": [ 89.54632, 22.86706, 0.0 ] } },
{ "type": "Feature", "properties": { "Name": "Liberty Cineplex", "description": null, "timestamp": null, "begin": null, "end": null, "altitudeMode": null, "tessellate": -1, "extrude": 0, "visibility": -1, "drawOrder": null, "icon": null }, "geometry": { "type": "Point", "coordinates": [ 89.53534, 22.86221, 0.0 ] } },
{ "type": "Feature", "properties": { "Name": "Notun Rastha Bus Stop", "description": null, "timestamp": null, "begin": null, "end": null, "altitudeMode": null, "tessellate": -1, "extrude": 0, "visibility": -1, "drawOrder": null, "icon": null }, "geometry": { "type": "Point", "coordinates": [ 89.52957, 22.8629, 0.0 ] } },
{ "type": "Feature", "properties": { "Name": "Platinum Jublee Jute Mill Quater Field", "description": null, "timestamp": null, "begin": null, "end": null, "altitudeMode": null, "tessellate": -1, "extrude": 0, "visibility": -1, "drawOrder": null, "icon": null }, "geometry": { "type": "Point", "coordinates": [ 89.54512, 22.86039, 0.0 ] } },
{ "type": "Feature", "properties": { "Name": "Khulna University Of Engineering & Technology (KUET)", "description": null, "timestamp": null, "begin": null, "end": null, "altitudeMode": null, "tessellate": -1, "extrude": 0, "visibility": -1, "drawOrder": null, "icon": null }, "geometry": { "type": "Point", "coordinates": [ 89.50236, 22.90055, 0.0 ] } },
{ "type": "Feature", "properties": { "Name": "Fulbari Gate Bus Station", "description": null, "timestamp": null, "begin": null, "end": null, "altitudeMode": null, "tessellate": -1, "extrude": 0, "visibility": -1, "drawOrder": null, "icon": null }, "geometry": { "type": "Point", "coordinates": [ 89.51006, 22.89792, 0.0 ] } },
{ "type": "Feature", "properties": { "Name": "Shaat Gombuj Masjid", "description": null, "timestamp": null, "begin": null, "end": null, "altitudeMode": null, "tessellate": -1, "extrude": 0, "visibility": -1, "drawOrder": null, "icon": null }, "geometry": { "type": "Point", "coordinates": [ 89.74184, 22.67451, 0.0 ] } },
{ "type": "Feature", "properties": { "Name": "Singair Masjid", "description": null, "timestamp": null, "begin": null, "end": null, "altitudeMode": null, "tessellate": -1, "extrude": 0, "visibility": -1, "drawOrder": null, "icon": null }, "geometry": { "type": "Point", "coordinates": [ 89.74251, 22.6728, 0.0 ] } },
{ "type": "Feature", "properties": { "Name": "Khan Jahan Ali Majar Jame Mosque", "description": null, "timestamp": null, "begin": null, "end": null, "altitudeMode": null, "tessellate": -1, "extrude": 0, "visibility": -1, "drawOrder": null, "icon": null }, "geometry": { "type": "Point", "coordinates": [ 89.75861, 22.66091, 0.0 ] } },
{ "type": "Feature", "properties": { "Name": "Hiron Point Bangladesh", "description": null, "timestamp": null, "begin": null, "end": null, "altitudeMode": null, "tessellate": -1, "extrude": 0, "visibility": -1, "drawOrder": null, "icon": null }, "geometry": { "type": "Point", "coordinates": [ 89.46267, 21.81616, 0.0 ] } },
{ "type": "Feature", "properties": { "Name": "Dublar Char", "description": null, "timestamp": null, "begin": null, "end": null, "altitudeMode": null, "tessellate": -1, "extrude": 0, "visibility": -1, "drawOrder": null, "icon": null }, "geometry": { "type": "Point", "coordinates": [ 89.5592, 21.77281, 0.0 ] } },
{ "type": "Feature", "properties": { "Name": "Kotka Beach", "description": null, "timestamp": null, "begin": null, "end": null, "altitudeMode": null, "tessellate": -1, "extrude": 0, "visibility": -1, "drawOrder": null, "icon": null }, "geometry": { "type": "Point", "coordinates": [ 89.77011, 21.85299, 0.0 ] } },
{ "type": "Feature", "properties": { "Name": "Karamjol", "description": null, "timestamp": null, "begin": null, "end": null, "altitudeMode": null, "tessellate": -1, "extrude": 0, "visibility": -1, "drawOrder": null, "icon": null }, "geometry": { "type": "Point", "coordinates": [ 89.58882, 22.42807, 0.0 ] } },
{ "type": "Feature", "properties": { "Name": "Mongla Bus Stop Ferry Ghat", "description": null, "timestamp": null, "begin": null, "end": null, "altitudeMode": null, "tessellate": -1, "extrude": 0, "visibility": -1, "drawOrder": null, "icon": null }, "geometry": { "type": "Point", "coordinates": [ 89.59836, 22.47296, 0.0 ] } },
{ "type": "Feature", "properties": { "Name": "Sundarban", "description": null, "timestamp": null, "begin": null, "end": null, "altitudeMode": null, "tessellate": -1, "extrude": 0, "visibility": -1, "drawOrder": null, "icon": null }, "geometry": { "type": "Point", "coordinates": [ 89.49944, 22.15587, 0.0 ] } },
{ "type": "Feature", "properties": { "Name": "Harbaria Eco Park Jetty, Sundarbans", "description": null, "timestamp": null, "begin": null, "end": null, "altitudeMode": null, "tessellate": -1, "extrude": 0, "visibility": -1, "drawOrder": null, "icon": null }, "geometry": { "type": "Point", "coordinates": [ 89.61443, 22.29773, 0.0 ] } },
{ "type": "Feature", "properties": { "Name": "Kokilmoni Forest Camp", "description": null, "timestamp": null, "begin": null, "end": null, "altitudeMode": null, "tessellate": -1, "extrude": 0, "visibility": -1, "drawOrder": null, "icon": null }, "geometry": { "type": "Point", "coordinates": [ 89.59453, 21.94658, 0.0 ] } },
{ "type": "Feature", "properties": { "Name": "বগা মোড়", "description": null, "timestamp": null, "begin": null, "end": null, "altitudeMode": null, "tessellate": -1, "extrude": 0, "visibility": -1, "drawOrder": null, "icon": null }, "geometry": { "type": "Point", "coordinates": [ 89.18166, 22.81968, 0.0 ] } },
{ "type": "Feature", "properties": { "Name": "Lalon Shah's Mazar", "description": null, "timestamp": null, "begin": null, "end": null, "altitudeMode": null, "tessellate": -1, "extrude": 0, "visibility": -1, "drawOrder": null, "icon": null }, "geometry": { "type": "Point", "coordinates": [ 89.15201, 23.89576, 0.0 ] } },
{ "type": "Feature", "properties": { "Name": "Paira Chottor", "description": null, "timestamp": null, "begin": null, "end": null, "altitudeMode": null, "tessellate": -1, "extrude": 0, "visibility": -1, "drawOrder": null, "icon": null }, "geometry": { "type": "Point", "coordinates": [ 89.1726, 23.54497, 0.0 ] } },
{ "type": "Feature", "properties": { "Name": "Natore Railway Station", "description": null, "timestamp": null, "begin": null, "end": null, "altitudeMode": null, "tessellate": -1, "extrude": 0, "visibility": -1, "drawOrder": null, "icon": null }, "geometry": { "type": "Point", "coordinates": [ 88.96637, 24.41104, 0.0 ] } },
{ "type": "Feature", "properties": { "Name": "Natore Rajbari", "description": null, "timestamp": null, "begin": null, "end": null, "altitudeMode": null, "tessellate": -1, "extrude": 0, "visibility": -1, "drawOrder": null, "icon": null }, "geometry": { "type": "Point", "coordinates": [ 88.99261, 24.41913, 0.0 ] } },
{ "type": "Feature", "properties": { "Name": "Natore Sugar Mill", "description": null, "timestamp": null, "begin": null, "end": null, "altitudeMode": null, "tessellate": -1, "extrude": 0, "visibility": -1, "drawOrder": null, "icon": null }, "geometry": { "type": "Point", "coordinates": [ 88.9605, 24.39772, 0.0 ] } },
{ "type": "Feature", "properties": { "Name": "Dighapatia Rajbari (Uttara Gonovobon)", "description": null, "timestamp": null, "begin": null, "end": null, "altitudeMode": null, "tessellate": -1, "extrude": 0, "visibility": -1, "drawOrder": null, "icon": null }, "geometry": { "type": "Point", "coordinates": [ 89.01019, 24.44072, 0.0 ] } },
{ "type": "Feature", "properties": { "Name": "Mohasthan Garh", "description": null, "timestamp": null, "begin": null, "end": null, "altitudeMode": null, "tessellate": -1, "extrude": 0, "visibility": -1, "drawOrder": null, "icon": null }, "geometry": { "type": "Point", "coordinates": [ 89.34614, 24.96153, 0.0 ] } },
{ "type": "Feature", "properties": { "Name": "Bogra Satmatha", "description": null, "timestamp": null, "begin": null, "end": null, "altitudeMode": null, "tessellate": -1, "extrude": 0, "visibility": -1, "drawOrder": null, "icon": null }, "geometry": { "type": "Point", "coordinates": [ 89.37294, 24.84808, 0.0 ] } },
{ "type": "Feature", "properties": { "Name": "Max Motel", "description": null, "timestamp": null, "begin": null, "end": null, "altitudeMode": null, "tessellate": -1, "extrude": 0, "visibility": -1, "drawOrder": null, "icon": null }, "geometry": { "type": "Point", "coordinates": [ 89.37337, 24.84392, 0.0 ] } },
{ "type": "Feature", "properties": { "Name": "Behular Bashor Ghor - Gokul Medh", "description": null, "timestamp": null, "begin": null, "end": null, "altitudeMode": null, "tessellate": -1, "extrude": 0, "visibility": -1, "drawOrder": null, "icon": null }, "geometry": { "type": "Point", "coordinates": [ 89.33661, 24.93621, 0.0 ] } },
{ "type": "Feature", "properties": { "Name": "Sompur Mahavihara", "description": null, "timestamp": null, "begin": null, "end": null, "altitudeMode": null, "tessellate": -1, "extrude": 0, "visibility": -1, "drawOrder": null, "icon": null }, "geometry": { "type": "Point", "coordinates": [ 88.97683, 25.03108, 0.0 ] } },
{ "type": "Feature", "properties": { "Name": "Paharpur Bihar Museum", "description": null, "timestamp": null, "begin": null, "end": null, "altitudeMode": null, "tessellate": -1, "extrude": 0, "visibility": -1, "drawOrder": null, "icon": null }, "geometry": { "type": "Point", "coordinates": [ 88.9807, 25.03112, 0.0 ] } },
{ "type": "Feature", "properties": { "Name": "Pabna University of Science & Technology", "description": null, "timestamp": null, "begin": null, "end": null, "altitudeMode": null, "tessellate": -1, "extrude": 0, "visibility": -1, "drawOrder": null, "icon": null }, "geometry": { "type": "Point", "coordinates": [ 89.27841, 24.01326, 0.0 ] } },
{ "type": "Feature", "properties": { "Name": "জাফলং পর্যটন কেন্দ্র", "description": null, "timestamp": null, "begin": null, "end": null, "altitudeMode": null, "tessellate": -1, "extrude": 0, "visibility": -1, "drawOrder": null, "icon": null }, "geometry": { "type": "Point", "coordinates": [ 92.01404, 25.18423, 0.0 ] } },
{ "type": "Feature", "properties": { "Name": "Hazrat Shahjalal Mazar Sharif", "description": null, "timestamp": null, "begin": null, "end": null, "altitudeMode": null, "tessellate": -1, "extrude": 0, "visibility": -1, "drawOrder": null, "icon": null }, "geometry": { "type": "Point", "coordinates": [ 91.86602, 24.90228, 0.0 ] } },
{ "type": "Feature", "properties": { "Name": "Kishori Mohan Girls' School", "description": null, "timestamp": null, "begin": null, "end": null, "altitudeMode": null, "tessellate": -1, "extrude": 0, "visibility": -1, "drawOrder": null, "icon": null }, "geometry": { "type": "Point", "coordinates": [ 91.87456, 24.89815, 0.0 ] } },
{ "type": "Feature", "properties": { "Name": "Mawlana Bhashani Science and Technology University(MBSTU)", "description": null, "timestamp": null, "begin": null, "end": null, "altitudeMode": null, "tessellate": -1, "extrude": 0, "visibility": -1, "drawOrder": null, "icon": null }, "geometry": { "type": "Point", "coordinates": [ 89.8906, 24.23577, 0.0 ] } },
{ "type": "Feature", "properties": { "Name": "Tangail Stadium", "description": null, "timestamp": null, "begin": null, "end": null, "altitudeMode": null, "tessellate": -1, "extrude": 0, "visibility": -1, "drawOrder": null, "icon": null }, "geometry": { "type": "Point", "coordinates": [ 89.91246, 24.25297, 0.0 ] } },
{ "type": "Feature", "properties": { "Name": "Tangail DC Lake", "description": null, "timestamp": null, "begin": null, "end": null, "altitudeMode": null, "tessellate": -1, "extrude": 0, "visibility": -1, "drawOrder": null, "icon": null }, "geometry": { "type": "Point", "coordinates": [ 89.92308, 24.26516, 0.0 ] } },
{ "type": "Feature", "properties": { "Name": "Puratan Bus Stand", "description": null, "timestamp": null, "begin": null, "end": null, "altitudeMode": null, "tessellate": -1, "extrude": 0, "visibility": -1, "drawOrder": null, "icon": null }, "geometry": { "type": "Point", "coordinates": [ 89.91985, 24.25143, 0.0 ] } },
{ "type": "Feature", "properties": { "Name": "কুমুদিনী কলেজ, টাংগাইল", "description": null, "timestamp": null, "begin": null, "end": null, "altitudeMode": null, "tessellate": -1, "extrude": 0, "visibility": -1, "drawOrder": null, "icon": null }, "geometry": { "type": "Point", "coordinates": [ 89.92214, 24.25683, 0.0 ] } },
{ "type": "Feature", "properties": { "Name": "Soul Park", "description": null, "timestamp": null, "begin": null, "end": null, "altitudeMode": null, "tessellate": -1, "extrude": 0, "visibility": -1, "drawOrder": null, "icon": null }, "geometry": { "type": "Point", "coordinates": [ 89.93815, 24.27269, 0.0 ] } },
{ "type": "Feature", "properties": { "Name": "Tangail", "description": null, "timestamp": null, "begin": null, "end": null, "altitudeMode": null, "tessellate": -1, "extrude": 0, "visibility": -1, "drawOrder": null, "icon": null }, "geometry": { "type": "Point", "coordinates": [ 89.93762, 24.27384, 0.0 ] } },
{ "type": "Feature", "properties": { "Name": "Shaheen Cadet School", "description": null, "timestamp": null, "begin": null, "end": null, "altitudeMode": null, "tessellate": -1, "extrude": 0, "visibility": -1, "drawOrder": null, "icon": null }, "geometry": { "type": "Point", "coordinates": [ 89.91708, 24.25753, 0.0 ] } },
{ "type": "Feature", "properties": { "Name": "Bangladesh Agricultural University BAU", "description": null, "timestamp": null, "begin": null, "end": null, "altitudeMode": null, "tessellate": -1, "extrude": 0, "visibility": -1, "drawOrder": null, "icon": null }, "geometry": { "type": "Point", "coordinates": [ 90.42666, 24.71963, 0.0 ] } },
{ "type": "Feature", "properties": { "Name": "Town Hall Mor, Mymensingh", "description": null, "timestamp": null, "begin": null, "end": null, "altitudeMode": null, "tessellate": -1, "extrude": 0, "visibility": -1, "drawOrder": null, "icon": null }, "geometry": { "type": "Point", "coordinates": [ 90.39872, 24.76301, 0.0 ] } },
{ "type": "Feature", "properties": { "Name": "Kishoreganj Govt. Boys' High School", "description": null, "timestamp": null, "begin": null, "end": null, "altitudeMode": null, "tessellate": -1, "extrude": 0, "visibility": -1, "drawOrder": null, "icon": null }, "geometry": { "type": "Point", "coordinates": [ 90.77929, 24.43895, 0.0 ] } },
{ "type": "Feature", "properties": { "Name": "Motiur Rahman Pir Bari Masjid", "description": null, "timestamp": null, "begin": null, "end": null, "altitudeMode": null, "tessellate": -1, "extrude": 0, "visibility": -1, "drawOrder": null, "icon": null }, "geometry": { "type": "Point", "coordinates": [ 90.79257, 24.45073, 0.0 ] } },
{ "type": "Feature", "properties": { "Name": "khal", "description": null, "timestamp": null, "begin": null, "end": null, "altitudeMode": null, "tessellate": -1, "extrude": 0, "visibility": -1, "drawOrder": null, "icon": null }, "geometry": { "type": "Point", "coordinates": [ 90.80831, 24.44938, 0.0 ] } },
{ "type": "Feature", "properties": { "Name": "Patan Para Bro Mosjid", "description": null, "timestamp": null, "begin": null, "end": null, "altitudeMode": null, "tessellate": -1, "extrude": 0, "visibility": -1, "drawOrder": null, "icon": null }, "geometry": { "type": "Point", "coordinates": [ 90.81109, 24.44344, 0.0 ] } },
{ "type": "Feature", "properties": { "Name": "Sholakia Jame Masjid", "description": null, "timestamp": null, "begin": null, "end": null, "altitudeMode": null, "tessellate": -1, "extrude": 0, "visibility": -1, "drawOrder": null, "icon": null }, "geometry": { "type": "Point", "coordinates": [ 90.78417, 24.4404, 0.0 ] } },
{ "type": "Feature", "properties": { "Name": "Modhuraj", "description": null, "timestamp": null, "begin": null, "end": null, "altitudeMode": null, "tessellate": -1, "extrude": 0, "visibility": -1, "drawOrder": null, "icon": null }, "geometry": { "type": "Point", "coordinates": [ 91.11198, 23.97603, 0.0 ] } },
{ "type": "Feature", "properties": { "Name": "Social Science Faculty, Jahangirnagar University", "description": null, "timestamp": null, "begin": null, "end": null, "altitudeMode": null, "tessellate": -1, "extrude": 0, "visibility": -1, "drawOrder": null, "icon": null }, "geometry": { "type": "Point", "coordinates": [ 90.27049, 23.88058, 0.0 ] } },
{ "type": "Feature", "properties": { "Name": "Gerua Bazar Jame Masjid", "description": null, "timestamp": null, "begin": null, "end": null, "altitudeMode": null, "tessellate": -1, "extrude": 0, "visibility": -1, "drawOrder": null, "icon": null }, "geometry": { "type": "Point", "coordinates": [ 90.25889, 23.87815, 0.0 ] } },
{ "type": "Feature", "properties": { "Name": "Bot Tola", "description": null, "timestamp": null, "begin": null, "end": null, "altitudeMode": null, "tessellate": -1, "extrude": 0, "visibility": -1, "drawOrder": null, "icon": null }, "geometry": { "type": "Point", "coordinates": [ 90.26543, 23.8798, 0.0 ] } },
{ "type": "Feature", "properties": { "Name": "Jahangirnagar University Central Mosque (জাহাঙ্গীরনগর বিশ্ববিদ্যালয় কেন্দ্রীয় জামে মসজিদ)", "description": null, "timestamp": null, "begin": null, "end": null, "altitudeMode": null, "tessellate": -1, "extrude": 0, "visibility": -1, "drawOrder": null, "icon": null }, "geometry": { "type": "Point", "coordinates": [ 90.27229, 23.88043, 0.0 ] } },
{ "type": "Feature", "properties": { "Name": "Prantic Bus Stop", "description": null, "timestamp": null, "begin": null, "end": null, "altitudeMode": null, "tessellate": -1, "extrude": 0, "visibility": -1, "drawOrder": null, "icon": null }, "geometry": { "type": "Point", "coordinates": [ 90.27224, 23.8897, 0.0 ] } },
{ "type": "Feature", "properties": { "Name": "Savar Bazar Bus Stop", "description": null, "timestamp": null, "begin": null, "end": null, "altitudeMode": null, "tessellate": -1, "extrude": 0, "visibility": -1, "drawOrder": null, "icon": null }, "geometry": { "type": "Point", "coordinates": [ 90.2573, 23.84725, 0.0 ] } },
{ "type": "Feature", "properties": { "Name": "National Martyr's Monument", "description": null, "timestamp": null, "begin": null, "end": null, "altitudeMode": null, "tessellate": -1, "extrude": 0, "visibility": -1, "drawOrder": null, "icon": null }, "geometry": { "type": "Point", "coordinates": [ 90.25478, 23.91126, 0.0 ] } },
{ "type": "Feature", "properties": { "Name": "Gabtoli Bus Terminal", "description": null, "timestamp": null, "begin": null, "end": null, "altitudeMode": null, "tessellate": -1, "extrude": 0, "visibility": -1, "drawOrder": null, "icon": null }, "geometry": { "type": "Point", "coordinates": [ 90.34289, 23.78286, 0.0 ] } },
{ "type": "Feature", "properties": { "Name": "Mazar Road Bus Stop", "description": null, "timestamp": null, "begin": null, "end": null, "altitudeMode": null, "tessellate": -1, "extrude": 0, "visibility": -1, "drawOrder": null, "icon": null }, "geometry": { "type": "Point", "coordinates": [ 90.34708, 23.78306, 0.0 ] } },
{ "type": "Feature", "properties": { "Name": "Purbachal Filling Station", "description": null, "timestamp": null, "begin": null, "end": null, "altitudeMode": null, "tessellate": -1, "extrude": 0, "visibility": -1, "drawOrder": null, "icon": null }, "geometry": { "type": "Point", "coordinates": [ 90.35169, 23.78209, 0.0 ] } },
{ "type": "Feature", "properties": { "Name": "Kallyanpur Bus Stop", "description": null, "timestamp": null, "begin": null, "end": null, "altitudeMode": null, "tessellate": -1, "extrude": 0, "visibility": -1, "drawOrder": null, "icon": null }, "geometry": { "type": "Point", "coordinates": [ 90.35994, 23.77866, 0.0 ] } },
{ "type": "Feature", "properties": { "Name": "Dhaka Shisu Mela", "description": null, "timestamp": null, "begin": null, "end": null, "altitudeMode": null, "tessellate": -1, "extrude": 0, "visibility": -1, "drawOrder": null, "icon": null }, "geometry": { "type": "Point", "coordinates": [ 90.36791, 23.77309, 0.0 ] } },
{ "type": "Feature", "properties": { "Name": "আগারগাঁও রেডিও বাস স্টপ", "description": null, "timestamp": null, "begin": null, "end": null, "altitudeMode": null, "tessellate": -1, "extrude": 0, "visibility": -1, "drawOrder": null, "icon": null }, "geometry": { "type": "Point", "coordinates": [ 90.37221, 23.77463, 0.0 ] } },
{ "type": "Feature", "properties": { "Name": "I.D.B Complex", "description": null, "timestamp": null, "begin": null, "end": null, "altitudeMode": null, "tessellate": -1, "extrude": 0, "visibility": -1, "drawOrder": null, "icon": null }, "geometry": { "type": "Point", "coordinates": [ 90.37933, 23.77853, 0.0 ] } },
{ "type": "Feature", "properties": { "Name": "Dhaka International Trade Fair Field", "description": null, "timestamp": null, "begin": null, "end": null, "altitudeMode": null, "tessellate": -1, "extrude": 0, "visibility": -1, "drawOrder": null, "icon": null }, "geometry": { "type": "Point", "coordinates": [ 90.37764, 23.76907, 0.0 ] } },
{ "type": "Feature", "properties": { "Name": "Bangabandhu International Conference Center", "description": null, "timestamp": null, "begin": null, "end": null, "altitudeMode": null, "tessellate": -1, "extrude": 0, "visibility": -1, "drawOrder": null, "icon": null }, "geometry": { "type": "Point", "coordinates": [ 90.38158, 23.76921, 0.0 ] } },
{ "type": "Feature", "properties": { "Name": "National Parliament House", "description": null, "timestamp": null, "begin": null, "end": null, "altitudeMode": null, "tessellate": -1, "extrude": 0, "visibility": -1, "drawOrder": null, "icon": null }, "geometry": { "type": "Point", "coordinates": [ 90.37764, 23.76134, 0.0 ] } },
{ "type": "Feature", "properties": { "Name": "Crecent park", "description": null, "timestamp": null, "begin": null, "end": null, "altitudeMode": null, "tessellate": -1, "extrude": 0, "visibility": -1, "drawOrder": null, "icon": null }, "geometry": { "type": "Point", "coordinates": [ 90.37823, 23.76547, 0.0 ] } },
{ "type": "Feature", "properties": { "Name": "Sher-E-Bangla Nagar Govt. Girls' High School শেরে বাংলা নগর সরকারি বালিকা উচ্চ বিদ্যালয়", "description": null, "timestamp": null, "begin": null, "end": null, "altitudeMode": null, "tessellate": -1, "extrude": 0, "visibility": -1, "drawOrder": null, "icon": null }, "geometry": { "type": "Point", "coordinates": [ 90.37381, 23.77406, 0.0 ] } },
{ "type": "Feature", "properties": { "Name": "Monipur School & College", "description": null, "timestamp": null, "begin": null, "end": null, "altitudeMode": null, "tessellate": -1, "extrude": 0, "visibility": -1, "drawOrder": null, "icon": null }, "geometry": { "type": "Point", "coordinates": [ 90.37504, 23.79482, 0.0 ] } },
{ "type": "Feature", "properties": { "Name": "Pirerbag Chapra Masjid", "description": null, "timestamp": null, "begin": null, "end": null, "altitudeMode": null, "tessellate": -1, "extrude": 0, "visibility": -1, "drawOrder": null, "icon": null }, "geometry": { "type": "Point", "coordinates": [ 90.36537, 23.79192, 0.0 ] } },
{ "type": "Feature", "properties": { "Name": "Chillers Mirpur", "description": null, "timestamp": null, "begin": null, "end": null, "altitudeMode": null, "tessellate": -1, "extrude": 0, "visibility": -1, "drawOrder": null, "icon": null }, "geometry": { "type": "Point", "coordinates": [ 90.36344, 23.7997, 0.0 ] } },
{ "type": "Feature", "properties": { "Name": "Prince Bazar Limited", "description": null, "timestamp": null, "begin": null, "end": null, "altitudeMode": null, "tessellate": -1, "extrude": 0, "visibility": -1, "drawOrder": null, "icon": null }, "geometry": { "type": "Point", "coordinates": [ 90.35383, 23.79873, 0.0 ] } },
{ "type": "Feature", "properties": { "Name": "Hazrat Shah Ali Bughdadi R. Mazar Sharif", "description": null, "timestamp": null, "begin": null, "end": null, "altitudeMode": null, "tessellate": -1, "extrude": 0, "visibility": -1, "drawOrder": null, "icon": null }, "geometry": { "type": "Point", "coordinates": [ 90.34892, 23.79729, 0.0 ] } },
{ "type": "Feature", "properties": { "Name": "Kiyangshi Thai & Chinese Restaurant", "description": null, "timestamp": null, "begin": null, "end": null, "altitudeMode": null, "tessellate": -1, "extrude": 0, "visibility": -1, "drawOrder": null, "icon": null }, "geometry": { "type": "Point", "coordinates": [ 90.35329, 23.7947, 0.0 ] } },
{ "type": "Feature", "properties": { "Name": "Salimuddin Market", "description": null, "timestamp": null, "begin": null, "end": null, "altitudeMode": null, "tessellate": -1, "extrude": 0, "visibility": -1, "drawOrder": null, "icon": null }, "geometry": { "type": "Point", "coordinates": [ 90.35842, 23.79515, 0.0 ] } },
{ "type": "Feature", "properties": { "Name": "Mostafa Mollah Baitul Aaman Jame Masjid", "description": null, "timestamp": null, "begin": null, "end": null, "altitudeMode": null, "tessellate": -1, "extrude": 0, "visibility": -1, "drawOrder": null, "icon": null }, "geometry": { "type": "Point", "coordinates": [ 90.36386, 23.79664, 0.0 ] } },
{ "type": "Feature", "properties": { "Name": "City Mahal Chinese Restaurant And Convention Center Ltd.", "description": null, "timestamp": null, "begin": null, "end": null, "altitudeMode": null, "tessellate": -1, "extrude": 0, "visibility": -1, "drawOrder": null, "icon": null }, "geometry": { "type": "Point", "coordinates": [ 90.3557, 23.7997, 0.0 ] } },
{ "type": "Feature", "properties": { "Name": "Dhaka Zoo", "description": null, "timestamp": null, "begin": null, "end": null, "altitudeMode": null, "tessellate": -1, "extrude": 0, "visibility": -1, "drawOrder": null, "icon": null }, "geometry": { "type": "Point", "coordinates": [ 90.34694, 23.81223, 0.0 ] } },
{ "type": "Feature", "properties": { "Name": "National Botanical Garden", "description": null, "timestamp": null, "begin": null, "end": null, "altitudeMode": null, "tessellate": -1, "extrude": 0, "visibility": -1, "drawOrder": null, "icon": null }, "geometry": { "type": "Point", "coordinates": [ 90.34771, 23.81288, 0.0 ] } },
{ "type": "Feature", "properties": { "Name": "Shah Ali Market", "description": null, "timestamp": null, "begin": null, "end": null, "altitudeMode": null, "tessellate": -1, "extrude": 0, "visibility": -1, "drawOrder": null, "icon": null }, "geometry": { "type": "Point", "coordinates": [ 90.369, 23.80653, 0.0 ] } },
{ "type": "Feature", "properties": { "Name": "Mirpur-10 Fruit Shops", "description": null, "timestamp": null, "begin": null, "end": null, "altitudeMode": null, "tessellate": -1, "extrude": 0, "visibility": -1, "drawOrder": null, "icon": null }, "geometry": { "type": "Point", "coordinates": [ 90.36853, 23.8064, 0.0 ] } },
{ "type": "Feature", "properties": { "Name": "Islami Bank Bangladesh Limited || Mirpur Branch, Dhaka", "description": null, "timestamp": null, "begin": null, "end": null, "altitudeMode": null, "tessellate": -1, "extrude": 0, "visibility": -1, "drawOrder": null, "icon": null }, "geometry": { "type": "Point", "coordinates": [ 90.36785, 23.80653, 0.0 ] } },
{ "type": "Feature", "properties": { "Name": "Syed Nazrul Islam National Swimming Complex", "description": null, "timestamp": null, "begin": null, "end": null, "altitudeMode": null, "tessellate": -1, "extrude": 0, "visibility": -1, "drawOrder": null, "icon": null }, "geometry": { "type": "Point", "coordinates": [ 90.36564, 23.80712, 0.0 ] } },
{ "type": "Feature", "properties": { "Name": "Sher-e-Bangla National Cricket Stadium", "description": null, "timestamp": null, "begin": null, "end": null, "altitudeMode": null, "tessellate": -1, "extrude": 0, "visibility": -1, "drawOrder": null, "icon": null }, "geometry": { "type": "Point", "coordinates": [ 90.36303, 23.80557, 0.0 ] } },
{ "type": "Feature", "properties": { "Name": "Mirpur Post Office", "description": null, "timestamp": null, "begin": null, "end": null, "altitudeMode": null, "tessellate": -1, "extrude": 0, "visibility": -1, "drawOrder": null, "icon": null }, "geometry": { "type": "Point", "coordinates": [ 90.36123, 23.8033, 0.0 ] } },
{ "type": "Feature", "properties": { "Name": "Dhaka North City Corporation, Zone-2 (Mirpur)", "description": null, "timestamp": null, "begin": null, "end": null, "altitudeMode": null, "tessellate": -1, "extrude": 0, "visibility": -1, "drawOrder": null, "icon": null }, "geometry": { "type": "Point", "coordinates": [ 90.3602, 23.80336, 0.0 ] } },
{ "type": "Feature", "properties": { "Name": "DOI FUSKA", "description": null, "timestamp": null, "begin": null, "end": null, "altitudeMode": null, "tessellate": -1, "extrude": 0, "visibility": -1, "drawOrder": null, "icon": null }, "geometry": { "type": "Point", "coordinates": [ 90.36065, 23.80492, 0.0 ] } },
{ "type": "Feature", "properties": { "Name": "PizzaBurg", "description": null, "timestamp": null, "begin": null, "end": null, "altitudeMode": null, "tessellate": -1, "extrude": 0, "visibility": -1, "drawOrder": null, "icon": null }, "geometry": { "type": "Point", "coordinates": [ 90.35481, 23.80344, 0.0 ] } },
{ "type": "Feature", "properties": { "Name": "PERI PASTA", "description": null, "timestamp": null, "begin": null, "end": null, "altitudeMode": null, "tessellate": -1, "extrude": 0, "visibility": -1, "drawOrder": null, "icon": null }, "geometry": { "type": "Point", "coordinates": [ 90.35475, 23.80339, 0.0 ] } },
{ "type": "Feature", "properties": { "Name": "Shaheed Suhrawardi Indoor Stadium", "description": null, "timestamp": null, "begin": null, "end": null, "altitudeMode": null, "tessellate": -1, "extrude": 0, "visibility": -1, "drawOrder": null, "icon": null }, "geometry": { "type": "Point", "coordinates": [ 90.36644, 23.8116, 0.0 ] } },
{ "type": "Feature", "properties": { "Name": "Radda MCH-FP Centre", "description": null, "timestamp": null, "begin": null, "end": null, "altitudeMode": null, "tessellate": -1, "extrude": 0, "visibility": -1, "drawOrder": null, "icon": null }, "geometry": { "type": "Point", "coordinates": [ 90.37007, 23.80738, 0.0 ] } },
{ "type": "Feature", "properties": { "Name": "Dental College Mosque", "description": null, "timestamp": null, "begin": null, "end": null, "altitudeMode": null, "tessellate": -1, "extrude": 0, "visibility": -1, "drawOrder": null, "icon": null }, "geometry": { "type": "Point", "coordinates": [ 90.38755, 23.79866, 0.0 ] } },
{ "type": "Feature", "properties": { "Name": "Bhashantek Bazar Masjid", "description": null, "timestamp": null, "begin": null, "end": null, "altitudeMode": null, "tessellate": -1, "extrude": 0, "visibility": -1, "drawOrder": null, "icon": null }, "geometry": { "type": "Point", "coordinates": [ 90.39225, 23.8112, 0.0 ] } },
{ "type": "Feature", "properties": { "Name": "Food Bungalow- A Greenview Rooftop Restaurant", "description": null, "timestamp": null, "begin": null, "end": null, "altitudeMode": null, "tessellate": -1, "extrude": 0, "visibility": -1, "drawOrder": null, "icon": null }, "geometry": { "type": "Point", "coordinates": [ 90.38718, 23.79702, 0.0 ] } },
{ "type": "Feature", "properties": { "Name": "Lalmati Tempo Stand", "description": null, "timestamp": null, "begin": null, "end": null, "altitudeMode": null, "tessellate": -1, "extrude": 0, "visibility": -1, "drawOrder": null, "icon": null }, "geometry": { "type": "Point", "coordinates": [ 90.378, 23.81881, 0.0 ] } },
{ "type": "Feature", "properties": { "Name": "Kalshi Bus Stand", "description": null, "timestamp": null, "begin": null, "end": null, "altitudeMode": null, "tessellate": -1, "extrude": 0, "visibility": -1, "drawOrder": null, "icon": null }, "geometry": { "type": "Point", "coordinates": [ 90.37762, 23.82198, 0.0 ] } },
{ "type": "Feature", "properties": { "Name": "Kalshi Bus Station", "description": null, "timestamp": null, "begin": null, "end": null, "altitudeMode": null, "tessellate": -1, "extrude": 0, "visibility": -1, "drawOrder": null, "icon": null }, "geometry": { "type": "Point", "coordinates": [ 90.37929, 23.82328, 0.0 ] } },
{ "type": "Feature", "properties": { "Name": "Ibne-Sina Pharmacy", "description": null, "timestamp": null, "begin": null, "end": null, "altitudeMode": null, "tessellate": -1, "extrude": 0, "visibility": -1, "drawOrder": null, "icon": null }, "geometry": { "type": "Point", "coordinates": [ 90.37727, 23.82578, 0.0 ] } },
{ "type": "Feature", "properties": { "Name": "Progoti High School", "description": null, "timestamp": null, "begin": null, "end": null, "altitudeMode": null, "tessellate": -1, "extrude": 0, "visibility": -1, "drawOrder": null, "icon": null }, "geometry": { "type": "Point", "coordinates": [ 90.37436, 23.81789, 0.0 ] } },
{ "type": "Feature", "properties": { "Name": "Mirpur 11", "description": null, "timestamp": null, "begin": null, "end": null, "altitudeMode": null, "tessellate": -1, "extrude": 0, "visibility": -1, "drawOrder": null, "icon": null }, "geometry": { "type": "Point", "coordinates": [ 90.36624, 23.81598, 0.0 ] } },
{ "type": "Feature", "properties": { "Name": "পূরবী কালশী রোড বাস স্টপ", "description": null, "timestamp": null, "begin": null, "end": null, "altitudeMode": null, "tessellate": -1, "extrude": 0, "visibility": -1, "drawOrder": null, "icon": null }, "geometry": { "type": "Point", "coordinates": [ 90.36504, 23.82017, 0.0 ] } },
{ "type": "Feature", "properties": { "Name": "Bauniabad Eidgah Maath", "description": null, "timestamp": null, "begin": null, "end": null, "altitudeMode": null, "tessellate": -1, "extrude": 0, "visibility": -1, "drawOrder": null, "icon": null }, "geometry": { "type": "Point", "coordinates": [ 90.38029, 23.81936, 0.0 ] } },
{ "type": "Feature", "properties": { "Name": "Baitul Mumin Jame Masjid", "description": null, "timestamp": null, "begin": null, "end": null, "altitudeMode": null, "tessellate": -1, "extrude": 0, "visibility": -1, "drawOrder": null, "icon": null }, "geometry": { "type": "Point", "coordinates": [ 90.37874, 23.82214, 0.0 ] } },
{ "type": "Feature", "properties": { "Name": "Kurigram Pharmacy", "description": null, "timestamp": null, "begin": null, "end": null, "altitudeMode": null, "tessellate": -1, "extrude": 0, "visibility": -1, "drawOrder": null, "icon": null }, "geometry": { "type": "Point", "coordinates": [ 90.38018, 23.82194, 0.0 ] } },
{ "type": "Feature", "properties": { "Name": "Milon Store", "description": null, "timestamp": null, "begin": null, "end": null, "altitudeMode": null, "tessellate": -1, "extrude": 0, "visibility": -1, "drawOrder": null, "icon": null }, "geometry": { "type": "Point", "coordinates": [ 90.37908, 23.81725, 0.0 ] } },
{ "type": "Feature", "properties": { "Name": "Alif Ryan Driving School & Rent -e-Car", "description": null, "timestamp": null, "begin": null, "end": null, "altitudeMode": null, "tessellate": -1, "extrude": 0, "visibility": -1, "drawOrder": null, "icon": null }, "geometry": { "type": "Point", "coordinates": [ 90.38234, 23.81649, 0.0 ] } },
{ "type": "Feature", "properties": { "Name": "Baitul Kurban Jame Mosjid", "description": null, "timestamp": null, "begin": null, "end": null, "altitudeMode": null, "tessellate": -1, "extrude": 0, "visibility": -1, "drawOrder": null, "icon": null }, "geometry": { "type": "Point", "coordinates": [ 90.38234, 23.81688, 0.0 ] } },
{ "type": "Feature", "properties": { "Name": "M\/S. Gazi Enterprise", "description": null, "timestamp": null, "begin": null, "end": null, "altitudeMode": null, "tessellate": -1, "extrude": 0, "visibility": -1, "drawOrder": null, "icon": null }, "geometry": { "type": "Point", "coordinates": [ 90.38222, 23.8181, 0.0 ] } },
{ "type": "Feature", "properties": { "Name": "Baitul Aman Jame Masjid", "description": null, "timestamp": null, "begin": null, "end": null, "altitudeMode": null, "tessellate": -1, "extrude": 0, "visibility": -1, "drawOrder": null, "icon": null }, "geometry": { "type": "Point", "coordinates": [ 90.3823, 23.82193, 0.0 ] } },
{ "type": "Feature", "properties": { "Name": "OPEX GROUP", "description": null, "timestamp": null, "begin": null, "end": null, "altitudeMode": null, "tessellate": -1, "extrude": 0, "visibility": -1, "drawOrder": null, "icon": null }, "geometry": { "type": "Point", "coordinates": [ 90.38057, 23.80842, 0.0 ] } },
{ "type": "Feature", "properties": { "Name": "হযরত- আবুহুরাইরা (রাঃ) জামে মসজিদ", "description": null, "timestamp": null, "begin": null, "end": null, "altitudeMode": null, "tessellate": -1, "extrude": 0, "visibility": -1, "drawOrder": null, "icon": null }, "geometry": { "type": "Point", "coordinates": [ 90.38248, 23.8106, 0.0 ] } },
{ "type": "Feature", "properties": { "Name": "Chemical X", "description": null, "timestamp": null, "begin": null, "end": null, "altitudeMode": null, "tessellate": -1, "extrude": 0, "visibility": -1, "drawOrder": null, "icon": null }, "geometry": { "type": "Point", "coordinates": [ 90.35535, 23.81156, 0.0 ] } },
{ "type": "Feature", "properties": { "Name": "Rina", "description": null, "timestamp": null, "begin": null, "end": null, "altitudeMode": null, "tessellate": -1, "extrude": 0, "visibility": -1, "drawOrder": null, "icon": null }, "geometry": { "type": "Point", "coordinates": [ 90.35757, 23.81311, 0.0 ] } },
{ "type": "Feature", "properties": { "Name": "Duaripara Bus Stoppage", "description": null, "timestamp": null, "begin": null, "end": null, "altitudeMode": null, "tessellate": -1, "extrude": 0, "visibility": -1, "drawOrder": null, "icon": null }, "geometry": { "type": "Point", "coordinates": [ 90.35708, 23.82408, 0.0 ] } },
{ "type": "Feature", "properties": { "Name": "Duaripara Bazar Jame Masjid", "description": null, "timestamp": null, "begin": null, "end": null, "altitudeMode": null, "tessellate": -1, "extrude": 0, "visibility": -1, "drawOrder": null, "icon": null }, "geometry": { "type": "Point", "coordinates": [ 90.35673, 23.82518, 0.0 ] } },
{ "type": "Feature", "properties": { "Name": "Pallabi Degree College (পল্লবী ডিগ্রী কলেজ)", "description": null, "timestamp": null, "begin": null, "end": null, "altitudeMode": null, "tessellate": -1, "extrude": 0, "visibility": -1, "drawOrder": null, "icon": null }, "geometry": { "type": "Point", "coordinates": [ 90.35746, 23.82718, 0.0 ] } },
{ "type": "Feature", "properties": { "Name": "Chalantika Mor Bus Stop", "description": null, "timestamp": null, "begin": null, "end": null, "altitudeMode": null, "tessellate": -1, "extrude": 0, "visibility": -1, "drawOrder": null, "icon": null }, "geometry": { "type": "Point", "coordinates": [ 90.36255, 23.81498, 0.0 ] } },
{ "type": "Feature", "properties": { "Name": "Chan Hotel", "description": null, "timestamp": null, "begin": null, "end": null, "altitudeMode": null, "tessellate": -1, "extrude": 0, "visibility": -1, "drawOrder": null, "icon": null }, "geometry": { "type": "Point", "coordinates": [ 90.36302, 23.81592, 0.0 ] } },
{ "type": "Feature", "properties": { "Name": "Rongdhonu Hospital (Urban Hospital)", "description": null, "timestamp": null, "begin": null, "end": null, "altitudeMode": null, "tessellate": -1, "extrude": 0, "visibility": -1, "drawOrder": null, "icon": null }, "geometry": { "type": "Point", "coordinates": [ 90.35968, 23.8227, 0.0 ] } },
{ "type": "Feature", "properties": { "Name": "Style Junction", "description": null, "timestamp": null, "begin": null, "end": null, "altitudeMode": null, "tessellate": -1, "extrude": 0, "visibility": -1, "drawOrder": null, "icon": null }, "geometry": { "type": "Point", "coordinates": [ 90.35929, 23.8175, 0.0 ] } },
{ "type": "Feature", "properties": { "Name": "Afzal General Store", "description": null, "timestamp": null, "begin": null, "end": null, "altitudeMode": null, "tessellate": -1, "extrude": 0, "visibility": -1, "drawOrder": null, "icon": null }, "geometry": { "type": "Point", "coordinates": [ 90.3752, 23.81364, 0.0 ] } },
{ "type": "Feature", "properties": { "Name": "Kochukhet Bus Stand and Ticket Counter", "description": null, "timestamp": null, "begin": null, "end": null, "altitudeMode": null, "tessellate": -1, "extrude": 0, "visibility": -1, "drawOrder": null, "icon": null }, "geometry": { "type": "Point", "coordinates": [ 90.38762, 23.79154, 0.0 ] } },
{ "type": "Feature", "properties": { "Name": "East Kafrul Central Jame Masjid", "description": null, "timestamp": null, "begin": null, "end": null, "altitudeMode": null, "tessellate": -1, "extrude": 0, "visibility": -1, "drawOrder": null, "icon": null }, "geometry": { "type": "Point", "coordinates": [ 90.38652, 23.78774, 0.0 ] } },
{ "type": "Feature", "properties": { "Name": "Shewrapara Central Jame Masjid", "description": null, "timestamp": null, "begin": null, "end": null, "altitudeMode": null, "tessellate": -1, "extrude": 0, "visibility": -1, "drawOrder": null, "icon": null }, "geometry": { "type": "Point", "coordinates": [ 90.37499, 23.79146, 0.0 ] } },
{ "type": "Feature", "properties": { "Name": "East West International School", "description": null, "timestamp": null, "begin": null, "end": null, "altitudeMode": null, "tessellate": -1, "extrude": 0, "visibility": -1, "drawOrder": null, "icon": null }, "geometry": { "type": "Point", "coordinates": [ 90.37367, 23.79201, 0.0 ] } },
{ "type": "Feature", "properties": { "Name": "Shewrapara Graveyard", "description": null, "timestamp": null, "begin": null, "end": null, "altitudeMode": null, "tessellate": -1, "extrude": 0, "visibility": -1, "drawOrder": null, "icon": null }, "geometry": { "type": "Point", "coordinates": [ 90.37554, 23.79159, 0.0 ] } },
{ "type": "Feature", "properties": { "Name": "Monipur High School And College", "description": null, "timestamp": null, "begin": null, "end": null, "altitudeMode": null, "tessellate": -1, "extrude": 0, "visibility": -1, "drawOrder": null, "icon": null }, "geometry": { "type": "Point", "coordinates": [ 90.36523, 23.80053, 0.0 ] } },
{ "type": "Feature", "properties": { "Name": "Monipur High School and College (Main Boys Section)", "description": null, "timestamp": null, "begin": null, "end": null, "altitudeMode": null, "tessellate": -1, "extrude": 0, "visibility": -1, "drawOrder": null, "icon": null }, "geometry": { "type": "Point", "coordinates": [ 90.36365, 23.80022, 0.0 ] } },
{ "type": "Feature", "properties": { "Name": "Dutch-Bangla Bank Limited (DBBL)", "description": null, "timestamp": null, "begin": null, "end": null, "altitudeMode": null, "tessellate": -1, "extrude": 0, "visibility": -1, "drawOrder": null, "icon": null }, "geometry": { "type": "Point", "coordinates": [ 90.36936, 23.80549, 0.0 ] } },
{ "type": "Feature", "properties": { "Name": "BAF Shaheen College Dhaka", "description": null, "timestamp": null, "begin": null, "end": null, "altitudeMode": null, "tessellate": -1, "extrude": 0, "visibility": -1, "drawOrder": null, "icon": null }, "geometry": { "type": "Point", "coordinates": [ 90.3912, 23.77699, 0.0 ] } },
{ "type": "Feature", "properties": { "Name": "BAF Shaheen College Dhaka Canteen", "description": null, "timestamp": null, "begin": null, "end": null, "altitudeMode": null, "tessellate": -1, "extrude": 0, "visibility": -1, "drawOrder": null, "icon": null }, "geometry": { "type": "Point", "coordinates": [ 90.39005, 23.77655, 0.0 ] } },
{ "type": "Feature", "properties": { "Name": "Shaheen Cinema Hall", "description": null, "timestamp": null, "begin": null, "end": null, "altitudeMode": null, "tessellate": -1, "extrude": 0, "visibility": -1, "drawOrder": null, "icon": null }, "geometry": { "type": "Point", "coordinates": [ 90.38905, 23.77848, 0.0 ] } },
{ "type": "Feature", "properties": { "Name": "Shaheenbag Jame Mosque", "description": null, "timestamp": null, "begin": null, "end": null, "altitudeMode": null, "tessellate": -1, "extrude": 0, "visibility": -1, "drawOrder": null, "icon": null }, "geometry": { "type": "Point", "coordinates": [ 90.39316, 23.7725, 0.0 ] } },
{ "type": "Feature", "properties": { "Name": "Air Force Central Mosjid", "description": null, "timestamp": null, "begin": null, "end": null, "altitudeMode": null, "tessellate": -1, "extrude": 0, "visibility": -1, "drawOrder": null, "icon": null }, "geometry": { "type": "Point", "coordinates": [ 90.38944, 23.77093, 0.0 ] } },
{ "type": "Feature", "properties": { "Name": "Bijoy Sarani Fountain", "description": null, "timestamp": null, "begin": null, "end": null, "altitudeMode": null, "tessellate": -1, "extrude": 0, "visibility": -1, "drawOrder": null, "icon": null }, "geometry": { "type": "Point", "coordinates": [ 90.38868, 23.76441, 0.0 ] } },
{ "type": "Feature", "properties": { "Name": "Department of Agricultural Extension", "description": null, "timestamp": null, "begin": null, "end": null, "altitudeMode": null, "tessellate": -1, "extrude": 0, "visibility": -1, "drawOrder": null, "icon": null }, "geometry": { "type": "Point", "coordinates": [ 90.38443, 23.75916, 0.0 ] } },
{ "type": "Feature", "properties": { "Name": "ইস্পাহানি ইসলামিয়া চক্ষু হাসপাতাল", "description": null, "timestamp": null, "begin": null, "end": null, "altitudeMode": null, "tessellate": -1, "extrude": 0, "visibility": -1, "drawOrder": null, "icon": null }, "geometry": { "type": "Point", "coordinates": [ 90.38504, 23.75867, 0.0 ] } },
{ "type": "Feature", "properties": { "Name": "Dhaka Residential Model College", "description": null, "timestamp": null, "begin": null, "end": null, "altitudeMode": null, "tessellate": -1, "extrude": 0, "visibility": -1, "drawOrder": null, "icon": null }, "geometry": { "type": "Point", "coordinates": [ 90.36881, 23.76555, 0.0 ] } },
{ "type": "Feature", "properties": { "Name": "Mohammadpur Town Hall", "description": null, "timestamp": null, "begin": null, "end": null, "altitudeMode": null, "tessellate": -1, "extrude": 0, "visibility": -1, "drawOrder": null, "icon": null }, "geometry": { "type": "Point", "coordinates": [ 90.36625, 23.7596, 0.0 ] } },
{ "type": "Feature", "properties": { "Name": "Lalmatia Block D Playground", "description": null, "timestamp": null, "begin": null, "end": null, "altitudeMode": null, "tessellate": -1, "extrude": 0, "visibility": -1, "drawOrder": null, "icon": null }, "geometry": { "type": "Point", "coordinates": [ 90.3677, 23.75383, 0.0 ] } },
{ "type": "Feature", "properties": { "Name": "Anwer Khan Modern Medical College Hospital", "description": null, "timestamp": null, "begin": null, "end": null, "altitudeMode": null, "tessellate": -1, "extrude": 0, "visibility": -1, "drawOrder": null, "icon": null }, "geometry": { "type": "Point", "coordinates": [ 90.38253, 23.7453, 0.0 ] } },
{ "type": "Feature", "properties": { "Name": "Jigatola Community Center", "description": null, "timestamp": null, "begin": null, "end": null, "altitudeMode": null, "tessellate": -1, "extrude": 0, "visibility": -1, "drawOrder": null, "icon": null }, "geometry": { "type": "Point", "coordinates": [ 90.37188, 23.73738, 0.0 ] } },
{ "type": "Feature", "properties": { "Name": "Bashundhara City Shopping Complex", "description": null, "timestamp": null, "begin": null, "end": null, "altitudeMode": null, "tessellate": -1, "extrude": 0, "visibility": -1, "drawOrder": null, "icon": null }, "geometry": { "type": "Point", "coordinates": [ 90.39047, 23.75091, 0.0 ] } },
{ "type": "Feature", "properties": { "Name": "Farmgate Bus Stop", "description": null, "timestamp": null, "begin": null, "end": null, "altitudeMode": null, "tessellate": -1, "extrude": 0, "visibility": -1, "drawOrder": null, "icon": null }, "geometry": { "type": "Point", "coordinates": [ 90.39, 23.75727, 0.0 ] } },
{ "type": "Feature", "properties": { "Name": "Mohakhali Bus Stop", "description": null, "timestamp": null, "begin": null, "end": null, "altitudeMode": null, "tessellate": -1, "extrude": 0, "visibility": -1, "drawOrder": null, "icon": null }, "geometry": { "type": "Point", "coordinates": [ 90.39774, 23.77824, 0.0 ] } },
{ "type": "Feature", "properties": { "Name": "Mohakhali Inter District Bus Terminal", "description": null, "timestamp": null, "begin": null, "end": null, "altitudeMode": null, "tessellate": -1, "extrude": 0, "visibility": -1, "drawOrder": null, "icon": null }, "geometry": { "type": "Point", "coordinates": [ 90.40104, 23.77269, 0.0 ] } },
{ "type": "Feature", "properties": { "Name": "Masjid-e-Gausul Azam", "description": null, "timestamp": null, "begin": null, "end": null, "altitudeMode": null, "tessellate": -1, "extrude": 0, "visibility": -1, "drawOrder": null, "icon": null }, "geometry": { "type": "Point", "coordinates": [ 90.4091, 23.78067, 0.0 ] } },
{ "type": "Feature", "properties": { "Name": "BRAC University", "description": null, "timestamp": null, "begin": null, "end": null, "altitudeMode": null, "tessellate": -1, "extrude": 0, "visibility": -1, "drawOrder": null, "icon": null }, "geometry": { "type": "Point", "coordinates": [ 90.40718, 23.78009, 0.0 ] } },
{ "type": "Feature", "properties": { "Name": "Fakhruddin Restaurant", "description": null, "timestamp": null, "begin": null, "end": null, "altitudeMode": null, "tessellate": -1, "extrude": 0, "visibility": -1, "drawOrder": null, "icon": null }, "geometry": { "type": "Point", "coordinates": [ 90.4174, 23.78056, 0.0 ] } },
{ "type": "Feature", "properties": { "Name": "কলকাতা ড্রাই ক্লিনার্স", "description": null, "timestamp": null, "begin": null, "end": null, "altitudeMode": null, "tessellate": -1, "extrude": 0, "visibility": -1, "drawOrder": null, "icon": null }, "geometry": { "type": "Point", "coordinates": [ 90.41768, 23.78057, 0.0 ] } },
{ "type": "Feature", "properties": { "Name": "Tarka", "description": null, "timestamp": null, "begin": null, "end": null, "altitudeMode": null, "tessellate": -1, "extrude": 0, "visibility": -1, "drawOrder": null, "icon": null }, "geometry": { "type": "Point", "coordinates": [ 90.40659, 23.79035, 0.0 ] } },
{ "type": "Feature", "properties": { "Name": "Argeela, Dhaka.", "description": null, "timestamp": null, "begin": null, "end": null, "altitudeMode": null, "tessellate": -1, "extrude": 0, "visibility": -1, "drawOrder": null, "icon": null }, "geometry": { "type": "Point", "coordinates": [ 90.4061, 23.79105, 0.0 ] } },
{ "type": "Feature", "properties": { "Name": "Save the Children (Bangladesh)", "description": null, "timestamp": null, "begin": null, "end": null, "altitudeMode": null, "tessellate": -1, "extrude": 0, "visibility": -1, "drawOrder": null, "icon": null }, "geometry": { "type": "Point", "coordinates": [ 90.41145, 23.79151, 0.0 ] } },
{ "type": "Feature", "properties": { "Name": "Gulshan Central Masjid (Azad Masjid)", "description": null, "timestamp": null, "begin": null, "end": null, "altitudeMode": null, "tessellate": -1, "extrude": 0, "visibility": -1, "drawOrder": null, "icon": null }, "geometry": { "type": "Point", "coordinates": [ 90.41459, 23.79007, 0.0 ] } },
{ "type": "Feature", "properties": { "Name": "Long Beach Suites Dhaka", "description": null, "timestamp": null, "begin": null, "end": null, "altitudeMode": null, "tessellate": -1, "extrude": 0, "visibility": -1, "drawOrder": null, "icon": null }, "geometry": { "type": "Point", "coordinates": [ 90.42048, 23.78971, 0.0 ] } },
{ "type": "Feature", "properties": { "Name": "NRECA International Ltd.", "description": null, "timestamp": null, "begin": null, "end": null, "altitudeMode": null, "tessellate": -1, "extrude": 0, "visibility": -1, "drawOrder": null, "icon": null }, "geometry": { "type": "Point", "coordinates": [ 90.41754, 23.79359, 0.0 ] } },
{ "type": "Feature", "properties": { "Name": "King Optics", "description": null, "timestamp": null, "begin": null, "end": null, "altitudeMode": null, "tessellate": -1, "extrude": 0, "visibility": -1, "drawOrder": null, "icon": null }, "geometry": { "type": "Point", "coordinates": [ 90.4132, 23.79479, 0.0 ] } },
{ "type": "Feature", "properties": { "Name": "Badda Bus Stop", "description": null, "timestamp": null, "begin": null, "end": null, "altitudeMode": null, "tessellate": -1, "extrude": 0, "visibility": -1, "drawOrder": null, "icon": null }, "geometry": { "type": "Point", "coordinates": [ 90.42552, 23.78056, 0.0 ] } },
{ "type": "Feature", "properties": { "Name": "Banasree Central Masjid", "description": null, "timestamp": null, "begin": null, "end": null, "altitudeMode": null, "tessellate": -1, "extrude": 0, "visibility": -1, "drawOrder": null, "icon": null }, "geometry": { "type": "Point", "coordinates": [ 90.43147, 23.76346, 0.0 ] } },
{ "type": "Feature", "properties": { "Name": "Meena Bazar", "description": null, "timestamp": null, "begin": null, "end": null, "altitudeMode": null, "tessellate": -1, "extrude": 0, "visibility": -1, "drawOrder": null, "icon": null }, "geometry": { "type": "Point", "coordinates": [ 90.42996, 23.76045, 0.0 ] } },
{ "type": "Feature", "properties": { "Name": "Khilkhet Nikunja 2 Jame Masjid", "description": null, "timestamp": null, "begin": null, "end": null, "altitudeMode": null, "tessellate": -1, "extrude": 0, "visibility": -1, "drawOrder": null, "icon": null }, "geometry": { "type": "Point", "coordinates": [ 90.41793, 23.83035, 0.0 ] } },
{ "type": "Feature", "properties": { "Name": "বিমান বন্দর স্টেশন", "description": null, "timestamp": null, "begin": null, "end": null, "altitudeMode": null, "tessellate": -1, "extrude": 0, "visibility": -1, "drawOrder": null, "icon": null }, "geometry": { "type": "Point", "coordinates": [ 90.40817, 23.85189, 0.0 ] } },
{ "type": "Feature", "properties": { "Name": "Azampur Local Bus Stop", "description": null, "timestamp": null, "begin": null, "end": null, "altitudeMode": null, "tessellate": -1, "extrude": 0, "visibility": -1, "drawOrder": null, "icon": null }, "geometry": { "type": "Point", "coordinates": [ 90.4005, 23.86851, 0.0 ] } },
{ "type": "Feature", "properties": { "Name": "Mazar Bus Stand", "description": null, "timestamp": null, "begin": null, "end": null, "altitudeMode": null, "tessellate": -1, "extrude": 0, "visibility": -1, "drawOrder": null, "icon": null }, "geometry": { "type": "Point", "coordinates": [ 90.42299, 23.87064, 0.0 ] } },
{ "type": "Feature", "properties": { "Name": "Uttara Community Center", "description": null, "timestamp": null, "begin": null, "end": null, "altitudeMode": null, "tessellate": -1, "extrude": 0, "visibility": -1, "drawOrder": null, "icon": null }, "geometry": { "type": "Point", "coordinates": [ 90.40429, 23.86865, 0.0 ] } },
{ "type": "Feature", "properties": { "Name": "Mukta Biriyani Ghor", "description": null, "timestamp": null, "begin": null, "end": null, "altitudeMode": null, "tessellate": -1, "extrude": 0, "visibility": -1, "drawOrder": null, "icon": null }, "geometry": { "type": "Point", "coordinates": [ 90.42961, 23.74769, 0.0 ] } },
{ "type": "Feature", "properties": { "Name": "Kamalapur Railway Station", "description": null, "timestamp": null, "begin": null, "end": null, "altitudeMode": null, "tessellate": -1, "extrude": 0, "visibility": -1, "drawOrder": null, "icon": null }, "geometry": { "type": "Point", "coordinates": [ 90.42611, 23.73187, 0.0 ] } },
{ "type": "Feature", "properties": { "Name": "Bangladesh Institute of Planners", "description": null, "timestamp": null, "begin": null, "end": null, "altitudeMode": null, "tessellate": -1, "extrude": 0, "visibility": -1, "drawOrder": null, "icon": null }, "geometry": { "type": "Point", "coordinates": [ 90.39301, 23.74677, 0.0 ] } },
{ "type": "Feature", "properties": { "Name": "Uttara Bank Limited, Hotel Intercontinental Branch", "description": null, "timestamp": null, "begin": null, "end": null, "altitudeMode": null, "tessellate": -1, "extrude": 0, "visibility": -1, "drawOrder": null, "icon": null }, "geometry": { "type": "Point", "coordinates": [ 90.39696, 23.74057, 0.0 ] } },
{ "type": "Feature", "properties": { "Name": "BIRDEM General Hospital", "description": null, "timestamp": null, "begin": null, "end": null, "altitudeMode": null, "tessellate": -1, "extrude": 0, "visibility": -1, "drawOrder": null, "icon": null }, "geometry": { "type": "Point", "coordinates": [ 90.39648, 23.73884, 0.0 ] } },
{ "type": "Feature", "properties": { "Name": "Shahbagh Police Station", "description": null, "timestamp": null, "begin": null, "end": null, "altitudeMode": null, "tessellate": -1, "extrude": 0, "visibility": -1, "drawOrder": null, "icon": null }, "geometry": { "type": "Point", "coordinates": [ 90.39618, 23.7372, 0.0 ] } },
{ "type": "Feature", "properties": { "Name": "Central Masjid Kataban", "description": null, "timestamp": null, "begin": null, "end": null, "altitudeMode": null, "tessellate": -1, "extrude": 0, "visibility": -1, "drawOrder": null, "icon": null }, "geometry": { "type": "Point", "coordinates": [ 90.39134, 23.73844, 0.0 ] } },
{ "type": "Feature", "properties": { "Name": "Multiplan Centre মাল্টিপ্লান সেন্টার", "description": null, "timestamp": null, "begin": null, "end": null, "altitudeMode": null, "tessellate": -1, "extrude": 0, "visibility": -1, "drawOrder": null, "icon": null }, "geometry": { "type": "Point", "coordinates": [ 90.3856, 23.73884, 0.0 ] } },
{ "type": "Feature", "properties": { "Name": "Dhaka New Market", "description": null, "timestamp": null, "begin": null, "end": null, "altitudeMode": null, "tessellate": -1, "extrude": 0, "visibility": -1, "drawOrder": null, "icon": null }, "geometry": { "type": "Point", "coordinates": [ 90.38377, 23.73319, 0.0 ] } },
{ "type": "Feature", "properties": { "Name": "Online Nilkhet", "description": null, "timestamp": null, "begin": null, "end": null, "altitudeMode": null, "tessellate": -1, "extrude": 0, "visibility": -1, "drawOrder": null, "icon": null }, "geometry": { "type": "Point", "coordinates": [ 90.38513, 23.73291, 0.0 ] } },
{ "type": "Feature", "properties": { "Name": "শান্তির পায়রা", "description": null, "timestamp": null, "begin": null, "end": null, "altitudeMode": null, "tessellate": -1, "extrude": 0, "visibility": -1, "drawOrder": null, "icon": null }, "geometry": { "type": "Point", "coordinates": [ 90.3957, 23.73226, 0.0 ] } },
{ "type": "Feature", "properties": { "Name": "Suhrawardy Udyan", "description": null, "timestamp": null, "begin": null, "end": null, "altitudeMode": null, "tessellate": -1, "extrude": 0, "visibility": -1, "drawOrder": null, "icon": null }, "geometry": { "type": "Point", "coordinates": [ 90.39991, 23.73224, 0.0 ] } },
{ "type": "Feature", "properties": { "Name": "Doel Chattar", "description": null, "timestamp": null, "begin": null, "end": null, "altitudeMode": null, "tessellate": -1, "extrude": 0, "visibility": -1, "drawOrder": null, "icon": null }, "geometry": { "type": "Point", "coordinates": [ 90.40029, 23.72802, 0.0 ] } },
{ "type": "Feature", "properties": { "Name": "Azimpur Graveyard", "description": null, "timestamp": null, "begin": null, "end": null, "altitudeMode": null, "tessellate": -1, "extrude": 0, "visibility": -1, "drawOrder": null, "icon": null }, "geometry": { "type": "Point", "coordinates": [ 90.38224, 23.72714, 0.0 ] } },
{ "type": "Feature", "properties": { "Name": "Lalbagh Fort", "description": null, "timestamp": null, "begin": null, "end": null, "altitudeMode": null, "tessellate": -1, "extrude": 0, "visibility": -1, "drawOrder": null, "icon": null }, "geometry": { "type": "Point", "coordinates": [ 90.38816, 23.71886, 0.0 ] } },
{ "type": "Feature", "properties": { "Name": "BGB Bazar", "description": null, "timestamp": null, "begin": null, "end": null, "altitudeMode": null, "tessellate": -1, "extrude": 0, "visibility": -1, "drawOrder": null, "icon": null }, "geometry": { "type": "Point", "coordinates": [ 90.37691, 23.72632, 0.0 ] } },
{ "type": "Feature", "properties": { "Name": "Panna Group", "description": null, "timestamp": null, "begin": null, "end": null, "altitudeMode": null, "tessellate": -1, "extrude": 0, "visibility": -1, "drawOrder": null, "icon": null }, "geometry": { "type": "Point", "coordinates": [ 90.36915, 23.72429, 0.0 ] } },
{ "type": "Feature", "properties": { "Name": "Advocate Kamrul Islam Community Center", "description": null, "timestamp": null, "begin": null, "end": null, "altitudeMode": null, "tessellate": -1, "extrude": 0, "visibility": -1, "drawOrder": null, "icon": null }, "geometry": { "type": "Point", "coordinates": [ 90.3726, 23.72053, 0.0 ] } },
{ "type": "Feature", "properties": { "Name": "Ashrafabad High School", "description": null, "timestamp": null, "begin": null, "end": null, "altitudeMode": null, "tessellate": -1, "extrude": 0, "visibility": -1, "drawOrder": null, "icon": null }, "geometry": { "type": "Point", "coordinates": [ 90.37779, 23.71083, 0.0 ] } },
{ "type": "Feature", "properties": { "Name": "Kholamora Terminal", "description": null, "timestamp": null, "begin": null, "end": null, "altitudeMode": null, "tessellate": -1, "extrude": 0, "visibility": -1, "drawOrder": null, "icon": null }, "geometry": { "type": "Point", "coordinates": [ 90.36109, 23.71494, 0.0 ] } },
{ "type": "Feature", "properties": { "Name": "Moulovi Bazar Community Center", "description": null, "timestamp": null, "begin": null, "end": null, "altitudeMode": null, "tessellate": -1, "extrude": 0, "visibility": -1, "drawOrder": null, "icon": null }, "geometry": { "type": "Point", "coordinates": [ 90.3993, 23.71652, 0.0 ] } },
{ "type": "Feature", "properties": { "Name": "Chaad Masjid", "description": null, "timestamp": null, "begin": null, "end": null, "altitudeMode": null, "tessellate": -1, "extrude": 0, "visibility": -1, "drawOrder": null, "icon": null }, "geometry": { "type": "Point", "coordinates": [ 90.40343, 23.71678, 0.0 ] } },
{ "type": "Feature", "properties": { "Name": "মাজেদ সরদার কমিউনিটি সেন্টার", "description": null, "timestamp": null, "begin": null, "end": null, "altitudeMode": null, "tessellate": -1, "extrude": 0, "visibility": -1, "drawOrder": null, "icon": null }, "geometry": { "type": "Point", "coordinates": [ 90.40317, 23.71862, 0.0 ] } },
{ "type": "Feature", "properties": { "Name": "Baitul Ijjat Jame Masjid", "description": null, "timestamp": null, "begin": null, "end": null, "altitudeMode": null, "tessellate": -1, "extrude": 0, "visibility": -1, "drawOrder": null, "icon": null }, "geometry": { "type": "Point", "coordinates": [ 90.40156, 23.71878, 0.0 ] } },
{ "type": "Feature", "properties": { "Name": "Baitul Aman Jame Masjid", "description": null, "timestamp": null, "begin": null, "end": null, "altitudeMode": null, "tessellate": -1, "extrude": 0, "visibility": -1, "drawOrder": null, "icon": null }, "geometry": { "type": "Point", "coordinates": [ 90.40496, 23.71843, 0.0 ] } },
{ "type": "Feature", "properties": { "Name": "Robin Enterprise", "description": null, "timestamp": null, "begin": null, "end": null, "altitudeMode": null, "tessellate": -1, "extrude": 0, "visibility": -1, "drawOrder": null, "icon": null }, "geometry": { "type": "Point", "coordinates": [ 90.41014, 23.71921, 0.0 ] } },
{ "type": "Feature", "properties": { "Name": "Sri Sri Radha Govinda Jiu Temple শ্রী শ্রী রাধাগোবিন্দ জীউ মন্দির", "description": null, "timestamp": null, "begin": null, "end": null, "altitudeMode": null, "tessellate": -1, "extrude": 0, "visibility": -1, "drawOrder": null, "icon": null }, "geometry": { "type": "Point", "coordinates": [ 90.4149, 23.71829, 0.0 ] } },
{ "type": "Feature", "properties": { "Name": "Al Bukhari Masjid", "description": null, "timestamp": null, "begin": null, "end": null, "altitudeMode": null, "tessellate": -1, "extrude": 0, "visibility": -1, "drawOrder": null, "icon": null }, "geometry": { "type": "Point", "coordinates": [ 90.41278, 23.71527, 0.0 ] } },
{ "type": "Feature", "properties": { "Name": "Shawpno Convenient Store", "description": null, "timestamp": null, "begin": null, "end": null, "altitudeMode": null, "tessellate": -1, "extrude": 0, "visibility": -1, "drawOrder": null, "icon": null }, "geometry": { "type": "Point", "coordinates": [ 90.41641, 23.70817, 0.0 ] } },
{ "type": "Feature", "properties": { "Name": "Gulistan Bus Stop", "description": null, "timestamp": null, "begin": null, "end": null, "altitudeMode": null, "tessellate": -1, "extrude": 0, "visibility": -1, "drawOrder": null, "icon": null }, "geometry": { "type": "Point", "coordinates": [ 90.41189, 23.72514, 0.0 ] } },
{ "type": "Feature", "properties": { "Name": "Dhaka South City Corporation (Fulbaria)", "description": null, "timestamp": null, "begin": null, "end": null, "altitudeMode": null, "tessellate": -1, "extrude": 0, "visibility": -1, "drawOrder": null, "icon": null }, "geometry": { "type": "Point", "coordinates": [ 90.40846, 23.72417, 0.0 ] } },
{ "type": "Feature", "properties": { "Name": "Dhaka River Port", "description": null, "timestamp": null, "begin": null, "end": null, "altitudeMode": null, "tessellate": -1, "extrude": 0, "visibility": -1, "drawOrder": null, "icon": null }, "geometry": { "type": "Point", "coordinates": [ 90.40974, 23.70559, 0.0 ] } },
{ "type": "Feature", "properties": { "Name": "K.L. Jubilee School & College", "description": null, "timestamp": null, "begin": null, "end": null, "altitudeMode": null, "tessellate": -1, "extrude": 0, "visibility": -1, "drawOrder": null, "icon": null }, "geometry": { "type": "Point", "coordinates": [ 90.41243, 23.70563, 0.0 ] } },
{ "type": "Feature", "properties": { "Name": "Jamuna Future Park", "description": null, "timestamp": null, "begin": null, "end": null, "altitudeMode": null, "tessellate": -1, "extrude": 0, "visibility": -1, "drawOrder": null, "icon": null }, "geometry": { "type": "Point", "coordinates": [ 90.42219, 23.813, 0.0 ] } },
{ "type": "Feature", "properties": { "Name": "Nadda Sarker Bari Jame Mosjid নদ্দা সরকার বাড়ী জামে মসজিদ", "description": null, "timestamp": null, "begin": null, "end": null, "altitudeMode": null, "tessellate": -1, "extrude": 0, "visibility": -1, "drawOrder": null, "icon": null }, "geometry": { "type": "Point", "coordinates": [ 90.41902, 23.8121, 0.0 ] } }
]
}
